street,city,zip,state,beds,baths,sq__ft,type,sale_date,latitude,longitude
113 LEEWILL AVE,RIO LINDA,95673,CA,3,2,1356,Residential,Wed May 21 00:00:00 EDT 2008,38.689999,-121.46321999999999
8209 RIVALLO WAY,SACRAMENTO,95829,CA,4,3,2126,Residential,Fri May 16 00:00:00 EDT 2008,38.459524,-121.3501
75 E ST,LINCOLN,95648,CA,3,2,0,Residential,Mon May 19 00:00:00 EDT 2008,38.886103999999996,-121.29028500000001
4966 CHARTER RD,ROCKLIN,95765,CA,3,2,1691,Residential,Mon May 19 00:00:00 EDT 2008,38.82553,-121.254698
7374 TISDALE WAY,SACRAMENTO,95822,CA,3,1,1058,Residential,Thu May 15 00:00:00 EDT 2008,38.488238,-121.47256100000001
8 RIVER RAFT CT,SACRAMENTO,95823,CA,4,2,2205,Residential,Tue May 20 00:00:00 EDT 2008,38.447353,-121.434969
6221 GREEN TOP WAY,ORANGEVALE,95662,CA,3,2,1196,Residential,Fri May 16 00:00:00 EDT 2008,38.679409,-121.21910700000001
6030 PALERMO WAY,EL DORADO HILLS,95762,CA,4,3,0,Residential,Wed May 21 00:00:00 EDT 2008,38.672761,-121.05037800000001
4900 ELUDE CT,SACRAMENTO,95842,CA,4,2,1627,Residential,Thu May 15 00:00:00 EDT 2008,38.696740000000005,-121.35051899999999
4854 TANGERINE AVE,SACRAMENTO,95823,CA,3,2,1386,Residential,Fri May 16 00:00:00 EDT 2008,38.478239,-121.446326
8082 LINDA ISLE LN,SACRAMENTO,95831,CA,0,0,0,Residential,Wed May 21 00:00:00 EDT 2008,38.4772,-121.5215
8758 LEMAS RD,SACRAMENTO,95828,CA,3,2,1410,Residential,Fri May 16 00:00:00 EDT 2008,38.467487,-121.377055
6513 HOLIDAY WAY,NORTH HIGHLANDS,95660,CA,3,2,1373,Residential,Thu May 15 00:00:00 EDT 2008,38.685361,-121.376938
8284 RED FOX WAY,ELK GROVE,95758,CA,4,2,1685,Residential,Tue May 20 00:00:00 EDT 2008,38.417182000000004,-121.397231
48 CRYSTALWOOD CIR,LINCOLN,95648,CA,0,0,0,Residential,Mon May 19 00:00:00 EDT 2008,38.884667,-121.289896
5201 LAGUNA OAKS DR Unit 172,ELK GROVE,95758,CA,1,1,722,Condo,Tue May 20 00:00:00 EDT 2008,38.423251,-121.44448899999999
8916 GABLES MILL PL,ELK GROVE,95758,CA,3,2,1340,Residential,Thu May 15 00:00:00 EDT 2008,38.433919,-121.422347
3920 SHINING STAR DR,SACRAMENTO,95823,CA,3,2,1418,Residential,Wed May 21 00:00:00 EDT 2008,38.48742,-121.46245900000001
3528 SAINT GEORGE DR,SACRAMENTO,95821,CA,3,1,1040,Residential,Thu May 15 00:00:00 EDT 2008,38.629468,-121.37644499999999
4508 OLD DAIRY DR,ANTELOPE,95843,CA,4,3,2026,Residential,Mon May 19 00:00:00 EDT 2008,38.72286,-121.35893899999999
8025 PEERLESS AVE,ORANGEVALE,95662,CA,2,1,1690,Residential,Wed May 21 00:00:00 EDT 2008,38.71147,-121.216214
1171 SONOMA AVE,SACRAMENTO,95815,CA,2,1,1011,Residential,Fri May 16 00:00:00 EDT 2008,38.6238,-121.439872
3305 RIO ROCA CT,ANTELOPE,95843,CA,4,3,2652,Residential,Mon May 19 00:00:00 EDT 2008,38.725079,-121.387698
83 ARCADE BLVD,SACRAMENTO,95815,CA,4,2,1158,Residential,Thu May 15 00:00:00 EDT 2008,38.618716,-121.466327
10629 BASIE WAY,RANCHO CORDOVA,95670,CA,4,2,1524,Residential,Mon May 19 00:00:00 EDT 2008,38.579,-121.292627
5625 JAMES WAY,SACRAMENTO,95822,CA,3,1,975,Residential,Wed May 21 00:00:00 EDT 2008,38.523947,-121.484946
7661 NIXOS WAY,SACRAMENTO,95823,CA,4,2,1472,Residential,Wed May 21 00:00:00 EDT 2008,38.479553,-121.46331699999999
5635 LOS PUEBLOS WAY,SACRAMENTO,95835,CA,3,2,1811,Residential,Fri May 16 00:00:00 EDT 2008,38.679190999999996,-121.537622
3318 DAVIDSON DR,ANTELOPE,95843,CA,3,1,988,Residential,Mon May 19 00:00:00 EDT 2008,38.705753,-121.38891699999999
10372 VIA CINTA CT,ELK GROVE,95757,CA,4,3,2724,Residential,Mon May 19 00:00:00 EDT 2008,38.380089,-121.42818600000001
540 HARLING CT,RIO LINDA,95673,CA,3,2,1093,Residential,Fri May 16 00:00:00 EDT 2008,38.682790000000004,-121.45350900000001
8830 ADUR RD,ELK GROVE,95624,CA,0,0,0,Residential,Tue May 20 00:00:00 EDT 2008,38.43742,-121.372876
5980 79TH ST,SACRAMENTO,95824,CA,2,1,868,Residential,Tue May 20 00:00:00 EDT 2008,38.518373,-121.41177900000001
632 NEWBRIDGE LN,LINCOLN,95648,CA,4,2,0,Residential,Tue May 20 00:00:00 EDT 2008,38.879084000000006,-121.29858600000001
7744 SOUTHBREEZE DR,SACRAMENTO,95828,CA,3,2,1468,Residential,Mon May 19 00:00:00 EDT 2008,38.476932,-121.378349
5635 FOXVIEW WAY,ELK GROVE,95757,CA,3,2,1457,Residential,Mon May 19 00:00:00 EDT 2008,38.395255999999996,-121.438249
19 CRYSTALWOOD CIR,LINCOLN,95648,CA,0,0,0,Residential,Mon May 19 00:00:00 EDT 2008,38.885376,-121.289414
5031 CORVAIR ST,NORTH HIGHLANDS,95660,CA,3,2,1082,Residential,Wed May 21 00:00:00 EDT 2008,38.658246000000005,-121.375469
76 CRYSTALWOOD CIR,LINCOLN,95648,CA,0,0,0,Residential,Mon May 19 00:00:00 EDT 2008,38.885464,-121.289922
8495 DARTFORD DR,SACRAMENTO,95823,CA,3,3,1961,Residential,Wed May 21 00:00:00 EDT 2008,38.448507,-121.421346
3128 VIA GRANDE,SACRAMENTO,95825,CA,2,1,972,Residential,Mon May 19 00:00:00 EDT 2008,38.598321,-121.39161000000001
6632 IBEX WOODS CT,CITRUS HEIGHTS,95621,CA,2,2,1162,Residential,Mon May 19 00:00:00 EDT 2008,38.720867999999996,-121.309855
6007 MARYBELLE LN,SHINGLE SPRINGS,95682,CA,0,0,0,Unkown,Fri May 16 00:00:00 EDT 2008,38.64347,-120.88818300000001
6232 GUS WAY,ELK GROVE,95757,CA,4,2,2789,Residential,Mon May 19 00:00:00 EDT 2008,38.388129,-121.43117
913 COBDEN CT,GALT,95632,CA,4,2,1555,Residential,Mon May 19 00:00:00 EDT 2008,38.282001,-121.295902
3660 22ND AVE,SACRAMENTO,95820,CA,2,1,932,Residential,Mon May 19 00:00:00 EDT 2008,38.532718,-121.46746999999999
4437 MITCHUM CT,ANTELOPE,95843,CA,3,2,1393,Residential,Tue May 20 00:00:00 EDT 2008,38.704407,-121.36113
739 E WOODSIDE LN Unit E,SACRAMENTO,95825,CA,1,1,682,Condo,Thu May 15 00:00:00 EDT 2008,38.578675,-121.409951
4290 BLACKFORD WAY,SACRAMENTO,95823,CA,3,2,1513,Residential,Fri May 16 00:00:00 EDT 2008,38.470494,-121.45416200000001
6905 COBALT WAY,CITRUS HEIGHTS,95621,CA,4,2,1582,Residential,Fri May 16 00:00:00 EDT 2008,38.691393,-121.30521499999999
8167 DERBY PARK CT,SACRAMENTO,95828,CA,4,2,1872,Residential,Mon May 19 00:00:00 EDT 2008,38.460491999999995,-121.373379
8363 LANGTREE WAY,SACRAMENTO,95823,CA,3,2,1452,Residential,Mon May 19 00:00:00 EDT 2008,38.453559999999996,-121.43595900000001
1113 COMMONS DR,SACRAMENTO,95825,CA,2,2,1623,Residential,Fri May 16 00:00:00 EDT 2008,38.567795000000004,-121.410703
2561 VERNA WAY,SACRAMENTO,95821,CA,3,1,1473,Residential,Fri May 16 00:00:00 EDT 2008,38.611055,-121.369964
116 CRYSTALWOOD WAY,LINCOLN,95648,CA,0,0,0,Residential,Mon May 19 00:00:00 EDT 2008,38.886282,-121.28958600000001
7108 HEATHER TREE DR,SACRAMENTO,95842,CA,3,2,1159,Residential,Mon May 19 00:00:00 EDT 2008,38.695677,-121.36022
5954 BRIDGECROSS DR,SACRAMENTO,95835,CA,3,2,1358,Residential,Thu May 15 00:00:00 EDT 2008,38.68197,-121.500025
611 BLOSSOM ROCK LN,FOLSOM,95630,CA,0,0,0,Condo,Tue May 20 00:00:00 EDT 2008,38.6457,-121.1197
3361 ALDER CANYON WAY,ANTELOPE,95843,CA,4,3,2085,Residential,Mon May 19 00:00:00 EDT 2008,38.727649,-121.38565600000001
4143 SEA MEADOW WAY,SACRAMENTO,95823,CA,4,3,1915,Residential,Wed May 21 00:00:00 EDT 2008,38.465340000000005,-121.45751899999999
5405 NECTAR CIR,ELK GROVE,95757,CA,3,2,2575,Residential,Tue May 20 00:00:00 EDT 2008,38.387014,-121.44096699999999
9080 BEDROCK CT,SACRAMENTO,95829,CA,4,2,1816,Residential,Mon May 19 00:00:00 EDT 2008,38.456939,-121.36296499999999
4085 FAWN CIR,SACRAMENTO,95823,CA,3,2,1289,Residential,Wed May 21 00:00:00 EDT 2008,38.470746000000005,-121.458918
6318 39TH AVE,SACRAMENTO,95824,CA,3,1,1050,Residential,Tue May 20 00:00:00 EDT 2008,38.518941999999996,-121.430158
5890 TT TRAK,FORESTHILL,95631,CA,0,0,0,Residential,Fri May 16 00:00:00 EDT 2008,39.020808,-120.821518
8217 PLUMERIA AVE,FAIR OAKS,95628,CA,3,2,3173,Residential,Fri May 16 00:00:00 EDT 2008,38.650735,-121.258628
207 ORANGE BLOSSOM CIR Unit C,FOLSOM,95630,CA,5,3,2687,Residential,Wed May 21 00:00:00 EDT 2008,38.646273,-121.175322
7863 CRESTLEIGH CT,ANTELOPE,95843,CA,2,2,1007,Residential,Tue May 20 00:00:00 EDT 2008,38.710889,-121.358876
9021 MADISON AVE,ORANGEVALE,95662,CA,4,2,1603,Residential,Wed May 21 00:00:00 EDT 2008,38.664186,-121.21751100000002
12209 CONSERVANCY WAY,RANCHO CORDOVA,95742,CA,0,0,0,Residential,Wed May 21 00:00:00 EDT 2008,38.553867,-121.219141
4734 14TH AVE,SACRAMENTO,95820,CA,2,1,834,Residential,Mon May 19 00:00:00 EDT 2008,38.539446999999996,-121.45085800000001
51 E ST,LINCOLN,95648,CA,4,2,0,Residential,Mon May 19 00:00:00 EDT 2008,38.885638,-121.290279
4243 MIDDLEBURY WAY,MATHER,95655,CA,3,2,2093,Residential,Wed May 21 00:00:00 EDT 2008,38.547990999999996,-121.280483
1316 I ST,RIO LINDA,95673,CA,3,1,1160,Residential,Mon May 19 00:00:00 EDT 2008,38.683673999999996,-121.435204
5404 ALMOND FALLS WAY,RANCHO CORDOVA,95742,CA,0,0,0,Residential,Tue May 20 00:00:00 EDT 2008,38.527502,-121.233492
8671 SUMMER SUN WAY,ELK GROVE,95624,CA,3,2,1451,Residential,Fri May 16 00:00:00 EDT 2008,38.442845,-121.373272
1033 PARK STREAM DR,GALT,95632,CA,0,0,0,Residential,Mon May 19 00:00:00 EDT 2008,38.287785,-121.28990300000001
5925 MALEVILLE AVE,CARMICHAEL,95608,CA,4,2,1120,Residential,Tue May 20 00:00:00 EDT 2008,38.666564,-121.325717
4520 BOMARK WAY,SACRAMENTO,95842,CA,4,2,1943,Multi-Family,Wed May 21 00:00:00 EDT 2008,38.665724,-121.358576
2123 AMANDA WAY,SACRAMENTO,95822,CA,3,2,1120,Residential,Mon May 19 00:00:00 EDT 2008,38.484896,-121.486948
12241 CANYONLANDS DR,RANCHO CORDOVA,95742,CA,0,0,0,Residential,Mon May 19 00:00:00 EDT 2008,38.557293,-121.217611
8205 WEYBURN CT,SACRAMENTO,95828,CA,3,2,1394,Residential,Mon May 19 00:00:00 EDT 2008,38.47316,-121.403893
2178 63RD AVE,SACRAMENTO,95822,CA,3,2,1207,Residential,Wed May 21 00:00:00 EDT 2008,38.493955,-121.48966000000001
3526 HIGH ST,SACRAMENTO,95838,CA,2,1,836,Residential,Wed May 21 00:00:00 EDT 2008,38.631913,-121.43487900000001
9741 SADDLEBRED CT,WILTON,95693,CA,0,0,0,Residential,Tue May 20 00:00:00 EDT 2008,38.408840999999995,-121.198039
4008 GREY LIVERY WAY,ANTELOPE,95843,CA,3,2,1669,Residential,Fri May 16 00:00:00 EDT 2008,38.71846,-121.37086200000002
8345 STAR THISTLE WAY,SACRAMENTO,95823,CA,4,2,1590,Residential,Wed May 21 00:00:00 EDT 2008,38.454349,-121.43923899999999
8215 PEREGRINE WAY,CITRUS HEIGHTS,95610,CA,3,2,1401,Residential,Fri May 16 00:00:00 EDT 2008,38.715493,-121.26293000000001
2820 DEL PASO BLVD,SACRAMENTO,95815,CA,4,2,1404,Multi-Family,Mon May 19 00:00:00 EDT 2008,38.617718,-121.44008899999999
2678 BRIARTON DR,LINCOLN,95648,CA,3,2,1650,Residential,Fri May 16 00:00:00 EDT 2008,38.844116,-121.27480600000001
4517 OLYMPIAD WAY,SACRAMENTO,95826,CA,4,2,1483,Residential,Fri May 16 00:00:00 EDT 2008,38.536751,-121.359154
2103 BURBERRY WAY,SACRAMENTO,95835,CA,3,2,1800,Residential,Mon May 19 00:00:00 EDT 2008,38.67342,-121.50854199999999
8001 HARTWICK WAY,SACRAMENTO,95828,CA,4,2,1448,Residential,Tue May 20 00:00:00 EDT 2008,38.488623,-121.410582
1910 BONAVISTA WAY,SACRAMENTO,95832,CA,3,2,1638,Residential,Fri May 16 00:00:00 EDT 2008,38.476048,-121.494961
5954 TANUS CIR,ROCKLIN,95677,CA,3,3,0,Residential,Mon May 19 00:00:00 EDT 2008,38.777584999999995,-121.2036
51 ANJOU CIR,SACRAMENTO,95835,CA,3,2,2187,Residential,Tue May 20 00:00:00 EDT 2008,38.661658,-121.54063300000001
3845 ELM ST,SACRAMENTO,95838,CA,3,1,1250,Residential,Mon May 19 00:00:00 EDT 2008,38.637337,-121.43283500000001
8244 SUNBIRD WAY,SACRAMENTO,95823,CA,3,2,1740,Residential,Tue May 20 00:00:00 EDT 2008,38.457654,-121.431381
909 SINGINGWOOD RD,SACRAMENTO,95864,CA,2,1,930,Residential,Mon May 19 00:00:00 EDT 2008,38.581471,-121.38838999999999
6900 LONICERA DR,ORANGEVALE,95662,CA,4,2,1456,Residential,Tue May 20 00:00:00 EDT 2008,38.692199,-121.250975
3228 I ST,SACRAMENTO,95816,CA,4,3,1939,Residential,Mon May 19 00:00:00 EDT 2008,38.573844,-121.46283899999999
4629 DORCHESTER LN,GRANITE BAY,95746,CA,5,3,2896,Residential,Mon May 19 00:00:00 EDT 2008,38.723545,-121.216025
4804 NORIKER DR,ELK GROVE,95757,CA,3,2,2163,Residential,Wed May 21 00:00:00 EDT 2008,38.400974,-121.448424
8463 TERRACOTTA CT,ELK GROVE,95624,CA,4,2,1721,Residential,Fri May 16 00:00:00 EDT 2008,38.450548,-121.36300200000001
8344 FIELDPOPPY CIR,SACRAMENTO,95828,CA,3,2,1407,Residential,Mon May 19 00:00:00 EDT 2008,38.479083,-121.400702
8151 QUAIL RIDGE CT,SACRAMENTO,95828,CA,3,2,1289,Residential,Tue May 20 00:00:00 EDT 2008,38.461296000000004,-121.39085800000001
4108 NORTON WAY,SACRAMENTO,95820,CA,3,1,963,Residential,Wed May 21 00:00:00 EDT 2008,38.537526,-121.478315
7349 FLETCHER FARM DR,SACRAMENTO,95828,CA,4,2,1587,Residential,Mon May 19 00:00:00 EDT 2008,38.49069,-121.38261899999999
4071 EVALITA WAY,SACRAMENTO,95823,CA,3,2,1089,Residential,Thu May 15 00:00:00 EDT 2008,38.466388,-121.45886100000001
6935 ELM TREE LN,ORANGEVALE,95662,CA,4,4,3056,Residential,Mon May 19 00:00:00 EDT 2008,38.693041,-121.23293999999999
5840 WALERGA RD,SACRAMENTO,95842,CA,2,1,840,Condo,Mon May 19 00:00:00 EDT 2008,38.673678,-121.35747099999999
44 CRYSTALWOOD CIR,LINCOLN,95648,CA,0,0,0,Residential,Mon May 19 00:00:00 EDT 2008,38.88459,-121.28983500000001
7944 SYLVAN OAK WAY,CITRUS HEIGHTS,95610,CA,3,2,1317,Residential,Tue May 20 00:00:00 EDT 2008,38.710388,-121.261096
7110 STELLA LN Unit 15,CARMICHAEL,95608,CA,2,2,1000,Condo,Mon May 19 00:00:00 EDT 2008,38.637396,-121.300055
1941 EXPEDITION WAY,SACRAMENTO,95832,CA,3,2,1302,Residential,Thu May 15 00:00:00 EDT 2008,38.473775,-121.49377700000001
1124 PERKINS WAY,SACRAMENTO,95818,CA,2,1,1304,Residential,Fri May 16 00:00:00 EDT 2008,38.551611,-121.50443700000001
4320 FOUR SEASONS RD,PLACERVILLE,95667,CA,3,2,0,Residential,Fri May 16 00:00:00 EDT 2008,38.690867,-120.69364099999999
9970 STATE HIGHWAY 193,PLACERVILLE,95667,CA,4,3,1929,Residential,Tue May 20 00:00:00 EDT 2008,38.787877,-120.816676
9570 HARVEST ROSE WAY,SACRAMENTO,95827,CA,5,3,2367,Residential,Wed May 21 00:00:00 EDT 2008,38.555993,-121.340352
9127 NEWHALL DR Unit 34,SACRAMENTO,95826,CA,1,1,611,Condo,Thu May 15 00:00:00 EDT 2008,38.542419,-121.359904
5938 WOODBRIAR WAY,CITRUS HEIGHTS,95621,CA,3,2,1329,Residential,Mon May 19 00:00:00 EDT 2008,38.706152,-121.325399
6288 LONETREE BLVD,ROCKLIN,95765,CA,0,0,0,Residential,Fri May 16 00:00:00 EDT 2008,38.804992999999996,-121.293609
212 CAPPUCINO WAY,SACRAMENTO,95838,CA,3,2,1353,Residential,Mon May 19 00:00:00 EDT 2008,38.657810999999995,-121.465327
3020 RICHARDSON CIR,EL DORADO HILLS,95762,CA,3,2,0,Residential,Wed May 21 00:00:00 EDT 2008,38.691299,-121.08175200000001
5651 OVERLEAF WAY,SACRAMENTO,95835,CA,4,2,1910,Residential,Tue May 20 00:00:00 EDT 2008,38.677454,-121.49479099999999
3025 EL PRADO WAY,SACRAMENTO,95825,CA,4,2,1751,Residential,Tue May 20 00:00:00 EDT 2008,38.606603,-121.394147
107 JARVIS CIR,SACRAMENTO,95834,CA,5,3,2258,Residential,Fri May 16 00:00:00 EDT 2008,38.639891,-121.537603
8531 HERMITAGE WAY,SACRAMENTO,95823,CA,4,2,1695,Residential,Fri May 16 00:00:00 EDT 2008,38.448452,-121.42853600000001
301 OLIVADI WAY,SACRAMENTO,95834,CA,2,2,1250,Condo,Mon May 19 00:00:00 EDT 2008,38.644406,-121.549049
3729 BAINBRIDGE DR,NORTH HIGHLANDS,95660,CA,3,2,901,Residential,Wed May 21 00:00:00 EDT 2008,38.701499,-121.37621999999999
9264 BOULDER RIVER WAY,ELK GROVE,95624,CA,5,2,2254,Residential,Fri May 16 00:00:00 EDT 2008,38.421713000000004,-121.34519099999999
523 EXCHANGE ST,SACRAMENTO,95838,CA,3,1,966,Residential,Mon May 19 00:00:00 EDT 2008,38.659414,-121.45408
1251 GREEN RAVINE DR,LINCOLN,95648,CA,4,2,0,Residential,Fri May 16 00:00:00 EDT 2008,38.88156,-121.30134299999999
1813 AVENIDA MARTINA,ROSEVILLE,95747,CA,3,2,1506,Residential,Fri May 16 00:00:00 EDT 2008,38.776649,-121.33958899999999
9720 LITTLE HARBOR WAY,ELK GROVE,95624,CA,4,3,2494,Residential,Tue May 20 00:00:00 EDT 2008,38.404934000000004,-121.352405
1675 VERNON ST Unit 8,ROSEVILLE,95678,CA,2,1,990,Residential,Mon May 19 00:00:00 EDT 2008,38.734136,-121.29963899999998
6118 STONEHAND AVE,CITRUS HEIGHTS,95621,CA,3,2,1118,Residential,Wed May 21 00:00:00 EDT 2008,38.707851,-121.32070700000001
3361 BOW MAR CT,CAMERON PARK,95682,CA,2,2,0,Residential,Tue May 20 00:00:00 EDT 2008,38.69437,-120.996602
4649 FREEWAY CIR,SACRAMENTO,95841,CA,3,2,1120,Residential,Mon May 19 00:00:00 EDT 2008,38.658734,-121.357196
7328 SPRINGMAN ST,SACRAMENTO,95822,CA,3,2,1164,Residential,Fri May 16 00:00:00 EDT 2008,38.491991,-121.477636
3224 PARKHAM DR,ROSEVILLE,95747,CA,0,0,0,Residential,Tue May 20 00:00:00 EDT 2008,38.772771,-121.364877
7624 BOGEY CT,SACRAMENTO,95828,CA,4,4,2162,Multi-Family,Wed May 21 00:00:00 EDT 2008,38.480090000000004,-121.415102
211 MCDANIEL CIR,SACRAMENTO,95838,CA,3,2,1110,Residential,Tue May 20 00:00:00 EDT 2008,38.636565000000004,-121.46038300000001
6932 RUSKUT WAY,SACRAMENTO,95823,CA,3,2,1477,Residential,Thu May 15 00:00:00 EDT 2008,38.499893,-121.45889
361 MAHONIA CIR,SACRAMENTO,95835,CA,4,3,2175,Residential,Mon May 19 00:00:00 EDT 2008,38.676171999999994,-121.50976100000001
7535 ALMA VISTA WAY,SACRAMENTO,95831,CA,2,1,950,Residential,Mon May 19 00:00:00 EDT 2008,38.48403,-121.50764099999999
2847 BELGRADE WAY,SACRAMENTO,95833,CA,4,2,1390,Residential,Mon May 19 00:00:00 EDT 2008,38.617173,-121.482541
3100 EXPLORER DR,SACRAMENTO,95827,CA,3,2,1380,Residential,Wed May 21 00:00:00 EDT 2008,38.566663,-121.33264399999999
1838 CASTRO WAY,SACRAMENTO,95818,CA,2,1,1126,Residential,Wed May 21 00:00:00 EDT 2008,38.556098,-121.49078700000001
1828 2ND AVE,SACRAMENTO,95818,CA,2,1,1144,Residential,Fri May 16 00:00:00 EDT 2008,38.556844,-121.490769
8884 AMBERJACK WAY,SACRAMENTO,95828,CA,3,2,2161,Residential,Fri May 16 00:00:00 EDT 2008,38.479343,-121.372553
4620 WELERA WAY,ELK GROVE,95757,CA,3,3,2725,Residential,Wed May 21 00:00:00 EDT 2008,38.398609,-121.450148
2332 CAMBRIDGE ST,SACRAMENTO,95815,CA,2,1,1032,Residential,Fri May 16 00:00:00 EDT 2008,38.608084999999996,-121.449651
2733 DANA LOOP,EL DORADO HILLS,95762,CA,0,0,0,Residential,Tue May 20 00:00:00 EDT 2008,38.628459,-121.05507800000001
1570 GLIDDEN AVE,SACRAMENTO,95822,CA,4,2,1253,Residential,Tue May 20 00:00:00 EDT 2008,38.482704,-121.500433
1315 KONDOS AVE,SACRAMENTO,95814,CA,2,3,1788,Residential,Mon May 19 00:00:00 EDT 2008,38.571943,-121.492106
5615 LUPIN LN,POLLOCK PINES,95726,CA,3,2,1380,Residential,Wed May 21 00:00:00 EDT 2008,38.708315,-120.603872
7223 KALLIE KAY LN,SACRAMENTO,95823,CA,3,2,1463,Residential,Wed May 21 00:00:00 EDT 2008,38.477553,-121.419463
9552 SUNLIGHT LN,ELK GROVE,95758,CA,3,2,1351,Residential,Fri May 16 00:00:00 EDT 2008,38.410561,-121.404327
9048 PINTO CANYON WAY,ROSEVILLE,95747,CA,4,3,2577,Residential,Fri May 16 00:00:00 EDT 2008,38.792493,-121.33189899999999
11 E ST,LINCOLN,95648,CA,0,0,0,Residential,Mon May 19 00:00:00 EDT 2008,38.884879,-121.29025700000001
5201 LAGUNA OAKS DR Unit 199,ELK GROVE,95758,CA,1,1,722,Condo,Tue May 20 00:00:00 EDT 2008,38.423251,-121.44448899999999
8108 FILIFERA WAY,ANTELOPE,95843,CA,4,3,1768,Residential,Tue May 20 00:00:00 EDT 2008,38.717042,-121.35468
9880 IZILDA CT,SACRAMENTO,95829,CA,5,4,3863,Residential,Fri May 16 00:00:00 EDT 2008,38.45326,-121.32573000000001
7901 GAZELLE TRAIL WAY,ANTELOPE,95843,CA,4,2,1953,Residential,Fri May 16 00:00:00 EDT 2008,38.71174,-121.342675
8637 PERIWINKLE CIR,ELK GROVE,95624,CA,3,2,1094,Residential,Fri May 16 00:00:00 EDT 2008,38.443184,-121.36438799999999
9474 VILLAGE TREE DR,ELK GROVE,95758,CA,4,2,1776,Residential,Mon May 19 00:00:00 EDT 2008,38.413947,-121.408276
4925 PERCHERON DR,ELK GROVE,95757,CA,3,2,1843,Residential,Wed May 21 00:00:00 EDT 2008,38.401540000000004,-121.447649
7849 BONNY DOWNS WAY,ELK GROVE,95758,CA,4,2,2306,Residential,Fri May 16 00:00:00 EDT 2008,38.42139,-121.41133899999998
2982 ABERDEEN LN,EL DORADO HILLS,95762,CA,4,3,0,Residential,Fri May 16 00:00:00 EDT 2008,38.706692,-121.058869
2113 FALL TRAIL CT,PLACERVILLE,95667,CA,4,2,0,Residential,Mon May 19 00:00:00 EDT 2008,38.733155,-120.74803899999999
15300 MURIETA SOUTH PKWY,RANCHO MURIETA,95683,CA,4,3,2734,Residential,Wed May 21 00:00:00 EDT 2008,38.4874,-121.075129
4085 COUNTRY DR,ANTELOPE,95843,CA,4,3,1915,Residential,Fri May 16 00:00:00 EDT 2008,38.706209,-121.36950900000001
3536 SUN MAIDEN WAY,ANTELOPE,95843,CA,3,2,1711,Residential,Fri May 16 00:00:00 EDT 2008,38.70968,-121.382328
6001 SHOO FLY RD,PLACERVILLE,95667,CA,0,0,0,Residential,Fri May 16 00:00:00 EDT 2008,38.813546,-120.80925400000001
5601 REXLEIGH DR,SACRAMENTO,95823,CA,4,2,1715,Residential,Thu May 15 00:00:00 EDT 2008,38.445342,-121.44150400000001
5337 DUSTY ROSE WAY,RANCHO CORDOVA,95742,CA,0,0,0,Residential,Wed May 21 00:00:00 EDT 2008,38.528575,-121.2286
1786 PIEDMONT WAY,ROSEVILLE,95661,CA,3,1,1152,Residential,Mon May 19 00:00:00 EDT 2008,38.72748,-121.25653700000001
9185 CERROLINDA CIR,ELK GROVE,95758,CA,3,2,1418,Residential,Thu May 15 00:00:00 EDT 2008,38.424496999999995,-121.42659499999999
3604 KODIAK WAY,ANTELOPE,95843,CA,3,2,1206,Residential,Thu May 15 00:00:00 EDT 2008,38.706175,-121.379776
1455 64TH AVE,SACRAMENTO,95822,CA,3,2,1169,Residential,Fri May 16 00:00:00 EDT 2008,38.492177000000005,-121.50339199999999
7 CRYSTALWOOD CIR,LINCOLN,95648,CA,0,0,0,Residential,Mon May 19 00:00:00 EDT 2008,38.885962,-121.28943600000001
1500 ORANGE HILL LN,PENRYN,95663,CA,3,2,1320,Residential,Mon May 19 00:00:00 EDT 2008,38.862708000000005,-121.16209199999999
5709 RIVER OAK WAY,CARMICHAEL,95608,CA,4,2,2222,Residential,Tue May 20 00:00:00 EDT 2008,38.602461,-121.330979
5912 DEEPDALE WAY,ELK GROVE,95758,CA,5,3,3468,Residential,Mon May 19 00:00:00 EDT 2008,38.439565,-121.43660600000001
8225 SCOTTSDALE DR,SACRAMENTO,95828,CA,4,2,1549,Residential,Fri May 16 00:00:00 EDT 2008,38.487864,-121.40247600000001
52 CRYSTALWOOD CIR,LINCOLN,95648,CA,0,0,0,Residential,Mon May 19 00:00:00 EDT 2008,38.88478,-121.289911
5924 TANUS CIR,ROCKLIN,95677,CA,4,2,0,Residential,Tue May 20 00:00:00 EDT 2008,38.778690999999995,-121.204292
2361 LA LOMA DR,RANCHO CORDOVA,95670,CA,3,2,1115,Residential,Fri May 16 00:00:00 EDT 2008,38.59368,-121.31605400000001
6320 EL DORADO ST,EL DORADO,95623,CA,2,1,1040,Residential,Fri May 16 00:00:00 EDT 2008,38.678758,-120.844118
9257 CALDERA WAY,SACRAMENTO,95826,CA,4,2,1605,Residential,Tue May 20 00:00:00 EDT 2008,38.558209999999995,-121.35502199999999
2148 RANCH VIEW DR,ROCKLIN,95765,CA,0,0,0,Residential,Mon May 19 00:00:00 EDT 2008,38.837455,-121.28933700000002
2216 DUNLAP DR,SACRAMENTO,95821,CA,3,1,1014,Residential,Mon May 19 00:00:00 EDT 2008,38.623738,-121.41305
8817 SAWTELLE WAY,SACRAMENTO,95826,CA,4,2,1139,Residential,Fri May 16 00:00:00 EDT 2008,38.565321999999995,-121.374251
386 1ST ST,LINCOLN,95648,CA,0,0,0,Residential,Mon May 19 00:00:00 EDT 2008,38.886528000000006,-121.28886899999999
100 REBECCA WAY,FOLSOM,95630,CA,3,2,2185,Residential,Wed May 21 00:00:00 EDT 2008,38.68479,-121.149199
3150 ROSEMONT DR,SACRAMENTO,95826,CA,3,2,1428,Residential,Fri May 16 00:00:00 EDT 2008,38.554927,-121.35521000000001
4351 TURNBRIDGE DR,SACRAMENTO,95823,CA,3,2,1488,Residential,Thu May 15 00:00:00 EDT 2008,38.502034,-121.456027
8636 LONGSPUR WAY,ANTELOPE,95843,CA,3,2,1670,Residential,Thu May 15 00:00:00 EDT 2008,38.725873,-121.35856000000001
2778 KAWEAH CT,CAMERON PARK,95682,CA,3,1,0,Residential,Tue May 20 00:00:00 EDT 2008,38.694052,-120.995589
1401 STERLING ST,SACRAMENTO,95822,CA,2,1,810,Residential,Fri May 16 00:00:00 EDT 2008,38.520319,-121.504727
5340 BIRK WAY,SACRAMENTO,95835,CA,3,2,1776,Residential,Tue May 20 00:00:00 EDT 2008,38.672495,-121.515251
306 CAMELLIA WAY,GALT,95632,CA,3,2,1130,Residential,Wed May 21 00:00:00 EDT 2008,38.260443,-121.29786399999999
8952 ROCKY CREEK CT,ELK GROVE,95758,CA,3,2,1273,Residential,Fri May 16 00:00:00 EDT 2008,38.431239,-121.44001000000002
7607 ELDER CREEK RD,SACRAMENTO,95824,CA,3,1,924,Residential,Tue May 20 00:00:00 EDT 2008,38.51055,-121.414768
416 LEITCH AVE,SACRAMENTO,95815,CA,2,1,795,Residential,Thu May 15 00:00:00 EDT 2008,38.612694,-121.45666899999999
12 COSTA BRASE CT,SACRAMENTO,95838,CA,3,2,1219,Residential,Fri May 16 00:00:00 EDT 2008,38.655553999999995,-121.464275
7043 9TH AVE,RIO LINDA,95673,CA,2,1,970,Residential,Thu May 15 00:00:00 EDT 2008,38.695589,-121.44413300000001
408 KIRKWOOD CT,LINCOLN,95648,CA,2,2,0,Residential,Mon May 19 00:00:00 EDT 2008,38.861615,-121.26868999999999
7933 DAFFODIL WAY,CITRUS HEIGHTS,95610,CA,3,2,1216,Residential,Thu May 15 00:00:00 EDT 2008,38.708824,-121.256803
448 ELMWOOD CT,ROSEVILLE,95678,CA,3,2,0,Residential,Fri May 16 00:00:00 EDT 2008,38.771916999999995,-121.30443899999999
5776 TERRACE DR,ROCKLIN,95765,CA,3,2,1577,Residential,Fri May 16 00:00:00 EDT 2008,38.800539,-121.260979
3820 NATOMA WAY,SACRAMENTO,95838,CA,4,2,1656,Residential,Wed May 21 00:00:00 EDT 2008,38.636748,-121.42215900000001
8421 SUNBLAZE WAY,SACRAMENTO,95823,CA,4,2,1580,Residential,Wed May 21 00:00:00 EDT 2008,38.450542999999996,-121.432538
8935 MOUNTAIN HOME CT,ELK GROVE,95624,CA,4,2,2111,Residential,Fri May 16 00:00:00 EDT 2008,38.38751,-121.370276
2100 BEATTY WAY,ROSEVILLE,95747,CA,3,2,1371,Residential,Thu May 15 00:00:00 EDT 2008,38.737882,-121.30814199999999
5509 LAGUNA CREST WAY,ELK GROVE,95758,CA,3,2,1175,Residential,Thu May 15 00:00:00 EDT 2008,38.42442,-121.440357
4904 J PKWY,SACRAMENTO,95823,CA,3,2,1400,Residential,Fri May 16 00:00:00 EDT 2008,38.487297,-121.44295
5429 HESPER WAY,CARMICHAEL,95608,CA,4,2,1319,Residential,Thu May 15 00:00:00 EDT 2008,38.665104,-121.315901
3348 40TH ST,SACRAMENTO,95817,CA,2,1,1080,Residential,Fri May 16 00:00:00 EDT 2008,38.544162,-121.460652
4030 BROADWAY,SACRAMENTO,95817,CA,2,1,623,Residential,Mon May 19 00:00:00 EDT 2008,38.546797999999995,-121.46003799999998
10542 SILVERWOOD WAY,RANCHO CORDOVA,95670,CA,3,1,1098,Residential,Tue May 20 00:00:00 EDT 2008,38.587156,-121.295778
6824 OLIVE TREE WAY,CITRUS HEIGHTS,95610,CA,3,2,1410,Residential,Fri May 16 00:00:00 EDT 2008,38.689239,-121.26773700000001
117 EVCAR WAY,RIO LINDA,95673,CA,3,2,1182,Residential,Mon May 19 00:00:00 EDT 2008,38.687659000000004,-121.4633
2513 OLD KENMARE RD,LINCOLN,95648,CA,5,3,0,Residential,Mon May 19 00:00:00 EDT 2008,38.847396,-121.25958600000001
82 WILDFLOWER DR,GALT,95632,CA,3,2,1262,Residential,Thu May 15 00:00:00 EDT 2008,38.259708,-121.31161599999999
1975 SIDESADDLE WAY,ROSEVILLE,95661,CA,3,2,2049,Residential,Fri May 16 00:00:00 EDT 2008,38.737871999999996,-121.249025
2505 RHINE WAY,ELVERTA,95626,CA,3,2,1080,Residential,Tue May 20 00:00:00 EDT 2008,38.717976,-121.407684
8304 RED FOX WAY,ELK GROVE,95758,CA,4,2,1685,Residential,Thu May 15 00:00:00 EDT 2008,38.417,-121.397424
3349 CORVINA DR,RANCHO CORDOVA,95670,CA,4,3,2109,Residential,Fri May 16 00:00:00 EDT 2008,38.580545,-121.279016
4004 CRESTA WAY,SACRAMENTO,95864,CA,3,3,2325,Residential,Wed May 21 00:00:00 EDT 2008,38.591618,-121.370626
7140 BLUE SPRINGS WAY,CITRUS HEIGHTS,95621,CA,3,2,1156,Residential,Tue May 20 00:00:00 EDT 2008,38.720653000000006,-121.302241
8718 ELK WAY,ELK GROVE,95624,CA,3,2,1056,Residential,Wed May 21 00:00:00 EDT 2008,38.41653,-121.379653
7540 HICKORY AVE,ORANGEVALE,95662,CA,3,1,1456,Residential,Thu May 15 00:00:00 EDT 2008,38.703056,-121.235221
5217 ARGO WAY,SACRAMENTO,95820,CA,3,1,1039,Residential,Mon May 19 00:00:00 EDT 2008,38.52774,-121.433669
5050 RHODE ISLAND DR Unit 4,SACRAMENTO,95841,CA,2,1,924,Condo,Mon May 19 00:00:00 EDT 2008,38.658739000000004,-121.33356100000002
1113 SANDWICK WAY,FOLSOM,95630,CA,4,3,3261,Residential,Fri May 16 00:00:00 EDT 2008,38.673882,-121.10507700000001
310 GROTH CIR,SACRAMENTO,95834,CA,4,2,1659,Residential,Mon May 19 00:00:00 EDT 2008,38.638764,-121.531827
907 RIO ROBLES AVE,SACRAMENTO,95838,CA,0,0,0,Residential,Mon May 19 00:00:00 EDT 2008,38.664765,-121.445006
87 LACAM CIR,SACRAMENTO,95820,CA,2,2,1188,Residential,Thu May 15 00:00:00 EDT 2008,38.532359,-121.41167
7517 50TH AVE,SACRAMENTO,95828,CA,3,1,962,Residential,Thu May 15 00:00:00 EDT 2008,38.507339,-121.41626699999999
220 OLD AIRPORT RD,AUBURN,95603,CA,2,2,960,Multi-Family,Mon May 19 00:00:00 EDT 2008,38.939802,-121.054575
5746 GELSTON WAY,EL DORADO HILLS,95762,CA,4,3,0,Residential,Mon May 19 00:00:00 EDT 2008,38.677015000000004,-121.03408300000001
8001 ARROYO VISTA DR,SACRAMENTO,95823,CA,3,2,1677,Residential,Thu May 15 00:00:00 EDT 2008,38.46734,-121.419843
7044 CARTHY WAY,SACRAMENTO,95828,CA,4,2,1146,Residential,Wed May 21 00:00:00 EDT 2008,38.49857,-121.420925
37 WHITE BIRCH CT,ROSEVILLE,95678,CA,3,2,1401,Residential,Tue May 20 00:00:00 EDT 2008,38.776327,-121.28451399999999
4800 WESTLAKE PKWY Unit 410,SACRAMENTO,95835,CA,1,1,846,Condo,Fri May 16 00:00:00 EDT 2008,38.658812,-121.542345
2422 STEFANIE DR,ROCKLIN,95765,CA,4,2,1888,Residential,Fri May 16 00:00:00 EDT 2008,38.82273,-121.26423999999999
1050 FOXHALL WAY,SACRAMENTO,95831,CA,4,2,2054,Residential,Wed May 21 00:00:00 EDT 2008,38.509819,-121.51966100000001
7800 TABARE CT,CITRUS HEIGHTS,95621,CA,3,2,1199,Residential,Fri May 16 00:00:00 EDT 2008,38.70799,-121.30297900000001
11215 SHARRMONT CT,WILTON,95693,CA,3,2,2110,Residential,Wed May 21 00:00:00 EDT 2008,38.35062,-121.228349
6128 CARL SANDBURG CIR,SACRAMENTO,95842,CA,3,1,1009,Residential,Mon May 19 00:00:00 EDT 2008,38.681540999999996,-121.355616
2400 INVERNESS DR,LINCOLN,95648,CA,3,2,1358,Residential,Thu May 15 00:00:00 EDT 2008,38.897814000000004,-121.32469099999999
7740 DIXIE LOU ST,SACRAMENTO,95832,CA,3,2,1232,Residential,Thu May 15 00:00:00 EDT 2008,38.475853,-121.47703899999999
32 CRYSTALWOOD CIR,LINCOLN,95648,CA,0,0,0,Residential,Mon May 19 00:00:00 EDT 2008,38.884741,-121.28939
3174 NORTHVIEW DR,SACRAMENTO,95833,CA,3,1,1080,Residential,Tue May 20 00:00:00 EDT 2008,38.623816999999995,-121.477827
1035 MILLET WAY,SACRAMENTO,95834,CA,3,2,1202,Residential,Tue May 20 00:00:00 EDT 2008,38.631056,-121.48508000000001
4631 11TH AVE,SACRAMENTO,95820,CA,2,1,1321,Residential,Tue May 20 00:00:00 EDT 2008,38.541965000000005,-121.452132
8156 STEINBECK WAY,SACRAMENTO,95828,CA,4,2,1714,Residential,Wed May 21 00:00:00 EDT 2008,38.474853,-121.406326
2277 BABETTE WAY,SACRAMENTO,95832,CA,3,2,1161,Residential,Thu May 15 00:00:00 EDT 2008,38.479593,-121.48433999999999
3425 MEADOW WAY,ROCKLIN,95677,CA,3,2,1462,Residential,Fri May 16 00:00:00 EDT 2008,38.798028,-121.23536399999999
2049 EMPIRE MINE CIR,GOLD RIVER,95670,CA,4,2,3037,Residential,Mon May 19 00:00:00 EDT 2008,38.629298999999996,-121.249021
5312 MARBURY WAY,ANTELOPE,95843,CA,3,2,1574,Residential,Tue May 20 00:00:00 EDT 2008,38.710221000000004,-121.341651
6080 BRIDGECROSS DR,SACRAMENTO,95835,CA,3,2,1120,Residential,Fri May 16 00:00:00 EDT 2008,38.681952,-121.50500900000002
8864 REMBRANT CT,ELK GROVE,95624,CA,4,3,1653,Residential,Tue May 20 00:00:00 EDT 2008,38.435288,-121.375703
2065 IMPRESSIONIST WAY,EL DORADO HILLS,95762,CA,0,0,0,Residential,Fri May 16 00:00:00 EDT 2008,38.682961,-121.033253
6001 MCMAHON DR,SACRAMENTO,95824,CA,2,1,797,Residential,Wed May 21 00:00:00 EDT 2008,38.51947,-121.435768
9937 BURLINE ST,SACRAMENTO,95827,CA,3,2,1092,Residential,Fri May 16 00:00:00 EDT 2008,38.559641,-121.32316000000002
62 DE FER CIR,SACRAMENTO,95823,CA,4,2,1876,Residential,Mon May 19 00:00:00 EDT 2008,38.492540000000005,-121.46331599999999
4800 WESTLAKE PKWY Unit 2109,SACRAMENTO,95835,CA,2,2,1304,Condo,Wed May 21 00:00:00 EDT 2008,38.658812,-121.542345
7709 RIVER VILLAGE DR,SACRAMENTO,95831,CA,3,2,1795,Residential,Fri May 16 00:00:00 EDT 2008,38.483212,-121.54019
200 CRADLE MOUNTAIN CT,EL DORADO HILLS,95762,CA,0,0,0,Residential,Fri May 16 00:00:00 EDT 2008,38.6478,-121.0309
5747 KING RD,LOOMIS,95650,CA,4,2,1328,Residential,Fri May 16 00:00:00 EDT 2008,38.825096,-121.19843200000001
7204 THOMAS DR,NORTH HIGHLANDS,95660,CA,3,2,1152,Residential,Mon May 19 00:00:00 EDT 2008,38.697897999999995,-121.37768700000001
9760 LAZULITE CT,ELK GROVE,95624,CA,4,3,3992,Residential,Tue May 20 00:00:00 EDT 2008,38.403609,-121.33554099999999
8008 SAINT HELENA CT,SACRAMENTO,95829,CA,4,2,1608,Residential,Thu May 15 00:00:00 EDT 2008,38.467012,-121.35996899999999
1900 DANBROOK DR,SACRAMENTO,95835,CA,1,1,984,Condo,Fri May 16 00:00:00 EDT 2008,38.668433,-121.50347099999999
1973 DANVERS WAY,SACRAMENTO,95832,CA,3,2,1638,Residential,Thu May 15 00:00:00 EDT 2008,38.477568,-121.492574
2328 DOROTHY JUNE WAY,SACRAMENTO,95838,CA,3,2,1430,Residential,Fri May 16 00:00:00 EDT 2008,38.641727,-121.41270300000001
3801 WILDROSE WAY,SACRAMENTO,95826,CA,3,1,1356,Residential,Mon May 19 00:00:00 EDT 2008,38.544368,-121.369979
221 PICASSO CIR,SACRAMENTO,95835,CA,0,0,0,Residential,Tue May 20 00:00:00 EDT 2008,38.676658,-121.52812800000001
72 CRYSTALWOOD CIR,LINCOLN,95648,CA,0,0,0,Residential,Mon May 19 00:00:00 EDT 2008,38.88535,-121.289926
7730 ROBINETTE RD,SACRAMENTO,95828,CA,3,2,1269,Residential,Thu May 15 00:00:00 EDT 2008,38.477090000000004,-121.410569
7731 MASTERS ST,ELK GROVE,95758,CA,5,3,2494,Residential,Wed May 21 00:00:00 EDT 2008,38.442031,-121.410873
1110 PINEDALE AVE,SACRAMENTO,95838,CA,3,2,1410,Residential,Fri May 16 00:00:00 EDT 2008,38.660173,-121.44021599999999
3 E ST,LINCOLN,95648,CA,0,0,0,Residential,Mon May 19 00:00:00 EDT 2008,38.884692,-121.29028799999999
18 OLLIE CT,ELK GROVE,95758,CA,4,2,1591,Residential,Wed May 21 00:00:00 EDT 2008,38.444909,-121.412345
47 NAPONEE CT,SACRAMENTO,95835,CA,3,2,1531,Residential,Tue May 20 00:00:00 EDT 2008,38.665704,-121.529096
227 MAHAN CT Unit 1,ROSEVILLE,95678,CA,2,1,780,Condo,Mon May 19 00:00:00 EDT 2008,38.749722999999996,-121.27008000000001
5419 HAVENHURST CIR,ROCKLIN,95677,CA,3,2,1510,Residential,Mon May 19 00:00:00 EDT 2008,38.786746,-121.209957
8929 SUTTERS GOLD DR,SACRAMENTO,95826,CA,4,3,1914,Residential,Wed May 21 00:00:00 EDT 2008,38.550847999999995,-121.370224
7109 CHANDLER DR,SACRAMENTO,95828,CA,3,1,1013,Residential,Mon May 19 00:00:00 EDT 2008,38.497237,-121.42418700000002
6905 FRANKFORT CT,ELK GROVE,95758,CA,3,2,1485,Residential,Fri May 16 00:00:00 EDT 2008,38.429139,-121.42344399999999
1219 G ST,SACRAMENTO,95814,CA,3,3,1922,Residential,Mon May 19 00:00:00 EDT 2008,38.582817999999996,-121.48909599999999
8806 PHOENIX AVE,FAIR OAKS,95628,CA,3,2,1450,Residential,Tue May 20 00:00:00 EDT 2008,38.660322,-121.230101
7541 SKELTON WAY,SACRAMENTO,95822,CA,3,1,1012,Residential,Mon May 19 00:00:00 EDT 2008,38.484274,-121.488851
201 CARLO CT,GALT,95632,CA,3,2,1080,Residential,Mon May 19 00:00:00 EDT 2008,38.24227,-121.31031999999999
320 GROTH CIR,SACRAMENTO,95834,CA,3,2,1441,Residential,Fri May 16 00:00:00 EDT 2008,38.638882,-121.53188300000001
9861 CULP WAY,SACRAMENTO,95827,CA,4,2,1380,Residential,Wed May 21 00:00:00 EDT 2008,38.558423,-121.32794799999999
7842 LAHONTAN CT,SACRAMENTO,95829,CA,4,3,2372,Residential,Wed May 21 00:00:00 EDT 2008,38.472976,-121.318633
2327 32ND ST,SACRAMENTO,95817,CA,2,1,1115,Residential,Fri May 16 00:00:00 EDT 2008,38.557433,-121.47034
5332 SANDSTONE ST,CARMICHAEL,95608,CA,3,1,1152,Residential,Wed May 21 00:00:00 EDT 2008,38.662105,-121.31394499999999
1223 LAMBERTON CIR,SACRAMENTO,95838,CA,3,2,1370,Residential,Mon May 19 00:00:00 EDT 2008,38.646677000000004,-121.437573
6622 WILLOWLEAF DR,CITRUS HEIGHTS,95621,CA,4,3,1892,Residential,Thu May 15 00:00:00 EDT 2008,38.699714,-121.31163500000001
1636 ALLENWOOD CIR,LINCOLN,95648,CA,4,2,0,Residential,Tue May 20 00:00:00 EDT 2008,38.879191999999996,-121.309477
441 ARLINGDALE CIR,RIO LINDA,95673,CA,4,2,1475,Residential,Tue May 20 00:00:00 EDT 2008,38.702892999999996,-121.454949
5118 ROBANDER ST,CARMICHAEL,95608,CA,3,2,1676,Residential,Fri May 16 00:00:00 EDT 2008,38.657267,-121.31035200000001
4113 DAYSTAR CT,SACRAMENTO,95824,CA,2,2,1139,Residential,Thu May 15 00:00:00 EDT 2008,38.520469,-121.458606
2848 PROVO WAY,SACRAMENTO,95822,CA,3,2,1646,Residential,Mon May 19 00:00:00 EDT 2008,38.489759,-121.474754
6913 RICHEVE WAY,SACRAMENTO,95828,CA,3,1,958,Residential,Wed May 21 00:00:00 EDT 2008,38.502519,-121.42076899999999
6112 HERMOSA ST,SACRAMENTO,95822,CA,3,1,1067,Residential,Tue May 20 00:00:00 EDT 2008,38.515125,-121.48041599999999
4621 COUNTRY SCENE WAY,SACRAMENTO,95823,CA,3,2,1366,Residential,Mon May 19 00:00:00 EDT 2008,38.470187,-121.448149
5333 PRIMROSE DR Unit 19A,FAIR OAKS,95628,CA,2,2,994,Condo,Tue May 20 00:00:00 EDT 2008,38.662785,-121.27627199999999
6222 CALLE MONTALVO CIR,GRANITE BAY,95746,CA,5,3,3670,Residential,Mon May 19 00:00:00 EDT 2008,38.779435,-121.146676
6045 EHRHARDT AVE,SACRAMENTO,95823,CA,3,2,1676,Residential,Mon May 19 00:00:00 EDT 2008,38.457157,-121.43306499999998
7809 VALLECITOS WAY,SACRAMENTO,95828,CA,3,1,888,Residential,Thu May 15 00:00:00 EDT 2008,38.508217,-121.411207
2566 SERENATA WAY,SACRAMENTO,95835,CA,3,2,1686,Residential,Fri May 16 00:00:00 EDT 2008,38.671556,-121.52091599999999
2610 PHYLLIS AVE,SACRAMENTO,95820,CA,2,1,804,Residential,Mon May 19 00:00:00 EDT 2008,38.53105,-121.479574
1440 EMERALD LN,LINCOLN,95648,CA,2,2,0,Residential,Fri May 16 00:00:00 EDT 2008,38.861864000000004,-121.267478
35 E ST,LINCOLN,95648,CA,0,0,0,Residential,Mon May 19 00:00:00 EDT 2008,38.885328,-121.290275
7620 DARLA WAY,SACRAMENTO,95828,CA,4,2,1590,Residential,Mon May 19 00:00:00 EDT 2008,38.478502,-121.403517
4709 AMBER LN Unit 1,SACRAMENTO,95841,CA,2,1,756,Condo,Mon May 19 00:00:00 EDT 2008,38.657789,-121.35499399999999
652 FIFTEEN MILE DR,ROSEVILLE,95678,CA,4,3,2212,Residential,Fri May 16 00:00:00 EDT 2008,38.775872,-121.298864
6236 LONGFORD DR Unit 1,CITRUS HEIGHTS,95621,CA,2,1,795,Condo,Wed May 21 00:00:00 EDT 2008,38.679776000000004,-121.314089
9361 WADDELL LN,ELK GROVE,95624,CA,4,3,2359,Residential,Wed May 21 00:00:00 EDT 2008,38.450829,-121.349928
10001 WOODCREEK OAKS BLVD Unit 1415,ROSEVILLE,95747,CA,2,2,0,Condo,Mon May 19 00:00:00 EDT 2008,38.795528999999995,-121.328819
746 MOOSE CREEK WAY,GALT,95632,CA,3,2,1100,Residential,Mon May 19 00:00:00 EDT 2008,38.283085,-121.302071
9054 DESCENDANT DR,ELK GROVE,95758,CA,3,2,1636,Residential,Fri May 16 00:00:00 EDT 2008,38.428852,-121.415628
2221 2ND AVE,SACRAMENTO,95818,CA,2,2,1089,Residential,Thu May 15 00:00:00 EDT 2008,38.555781,-121.485331
20 GROTH CIR,SACRAMENTO,95834,CA,3,2,1232,Residential,Fri May 16 00:00:00 EDT 2008,38.640807,-121.53352199999999
3621 WINTUN DR,CARMICHAEL,95608,CA,3,2,1655,Residential,Fri May 16 00:00:00 EDT 2008,38.629929,-121.323086
4524 LOCH HAVEN WAY,SACRAMENTO,95842,CA,2,1,904,Residential,Tue May 20 00:00:00 EDT 2008,38.67273,-121.359645
3800 LYNHURST WAY,NORTH HIGHLANDS,95660,CA,3,1,888,Residential,Tue May 20 00:00:00 EDT 2008,38.650445,-121.37486100000001
3863 LAS PASAS WAY,SACRAMENTO,95864,CA,3,1,1348,Residential,Fri May 16 00:00:00 EDT 2008,38.588936,-121.37360600000001
6716 TAREYTON WAY,CITRUS HEIGHTS,95621,CA,3,2,1104,Residential,Tue May 20 00:00:00 EDT 2008,38.693723999999996,-121.30716899999999
7458 WINKLEY WAY,SACRAMENTO,95822,CA,3,1,1320,Residential,Tue May 20 00:00:00 EDT 2008,38.487444,-121.49136599999999
9688 NATURE TRAIL WAY,ELK GROVE,95757,CA,5,3,3389,Residential,Tue May 20 00:00:00 EDT 2008,38.405224,-121.479275
7340 HAMDEN PL,SACRAMENTO,95842,CA,2,2,1134,Condo,Wed May 21 00:00:00 EDT 2008,38.700051,-121.35127800000001
506 BEDFORD CT,ROSEVILLE,95661,CA,4,2,2295,Residential,Fri May 16 00:00:00 EDT 2008,38.733985,-121.23676599999999
7381 WASHBURN WAY,NORTH HIGHLANDS,95660,CA,3,1,960,Residential,Thu May 15 00:00:00 EDT 2008,38.70355,-121.375103
170 PENHOW CIR,SACRAMENTO,95834,CA,3,2,1511,Residential,Wed May 21 00:00:00 EDT 2008,38.653439,-121.535169
5544 CAMAS CT,ORANGEVALE,95662,CA,3,2,1616,Residential,Fri May 16 00:00:00 EDT 2008,38.667703,-121.209456
8164 CHENIN BLANC LN,FAIR OAKS,95628,CA,2,2,1315,Residential,Tue May 20 00:00:00 EDT 2008,38.665644,-121.259969
3662 RIVER DR,SACRAMENTO,95833,CA,4,3,2447,Residential,Mon May 19 00:00:00 EDT 2008,38.604969,-121.54255
3512 RAINSONG CIR,RANCHO CORDOVA,95670,CA,4,3,2208,Residential,Tue May 20 00:00:00 EDT 2008,38.573488,-121.28280900000001
8632 PRAIRIEWOODS DR,SACRAMENTO,95828,CA,3,2,1543,Residential,Thu May 15 00:00:00 EDT 2008,38.477563,-121.384382
9204 TROUT WAY,ELK GROVE,95624,CA,4,2,1982,Residential,Fri May 16 00:00:00 EDT 2008,38.422221,-121.375799
10158 CRAWFORD WAY,SACRAMENTO,95827,CA,4,4,2213,Multi-Family,Wed May 21 00:00:00 EDT 2008,38.5703,-121.315735
6121 WILD FOX CT,ELK GROVE,95757,CA,3,3,2442,Residential,Mon May 19 00:00:00 EDT 2008,38.406758,-121.431669
4841 VILLAGE GREEN DR,EL DORADO HILLS,95762,CA,4,3,0,Residential,Fri May 16 00:00:00 EDT 2008,38.664066,-121.056735
8253 KEEGAN WAY,ELK GROVE,95624,CA,0,0,0,Residential,Fri May 16 00:00:00 EDT 2008,38.446286,-121.40081699999999
7641 ROSEHALL DR,ROSEVILLE,95678,CA,3,2,0,Residential,Mon May 19 00:00:00 EDT 2008,38.791616999999995,-121.286147
4803 MCCLOUD DR,SACRAMENTO,95842,CA,2,2,967,Residential,Tue May 20 00:00:00 EDT 2008,38.682279,-121.35281699999999
4200 COMMERCE WAY Unit 711,SACRAMENTO,95834,CA,2,2,958,Condo,Mon May 19 00:00:00 EDT 2008,38.647523,-121.52321699999999
411 ILLSLEY WAY,FOLSOM,95630,CA,4,2,1595,Residential,Tue May 20 00:00:00 EDT 2008,38.652002,-121.129504
8716 LONGSPUR WAY,ANTELOPE,95843,CA,3,2,1479,Residential,Fri May 16 00:00:00 EDT 2008,38.724083,-121.3584
10085 ATKINS DR,ELK GROVE,95757,CA,3,2,1302,Residential,Thu May 15 00:00:00 EDT 2008,38.390893,-121.437821
2340 HURLEY WAY,SACRAMENTO,95825,CA,0,0,0,Condo,Tue May 20 00:00:00 EDT 2008,38.588815999999994,-121.408549
7004 RAWLEY WAY,ELK GROVE,95757,CA,4,3,3440,Residential,Wed May 21 00:00:00 EDT 2008,38.406421,-121.422081
636 CRESTVIEW DR,DIAMOND SPRINGS,95619,CA,3,2,1300,Residential,Fri May 16 00:00:00 EDT 2008,38.688255,-120.810235
5805 DOTMAR WAY,NORTH HIGHLANDS,95660,CA,2,1,904,Residential,Fri May 16 00:00:00 EDT 2008,38.672641999999996,-121.380343
8879 APPLE PEAR CT,ELK GROVE,95624,CA,4,2,1477,Residential,Thu May 15 00:00:00 EDT 2008,38.44574,-121.3725
6503 RIO DE ONAR WAY,ELK GROVE,95757,CA,5,4,3508,Residential,Wed May 21 00:00:00 EDT 2008,38.382529999999996,-121.42803799999999
9677 PILLITERI CT,ELK GROVE,95757,CA,5,3,2875,Residential,Fri May 16 00:00:00 EDT 2008,38.405571,-121.445186
3372 BERETANIA WAY,SACRAMENTO,95834,CA,4,3,2962,Residential,Fri May 16 00:00:00 EDT 2008,38.649770000000004,-121.53448
1312 RENISON LN,LINCOLN,95648,CA,5,3,0,Residential,Tue May 20 00:00:00 EDT 2008,38.866409000000004,-121.308485
4236 ADRIATIC SEA WAY,SACRAMENTO,95834,CA,0,0,0,Residential,Tue May 20 00:00:00 EDT 2008,38.647960999999995,-121.54316200000001
4800 MAPLEPLAIN AVE,ELK GROVE,95758,CA,4,2,2109,Residential,Mon May 19 00:00:00 EDT 2008,38.432848,-121.44923700000001
6139 HERMOSA ST,SACRAMENTO,95822,CA,3,2,1120,Residential,Tue May 20 00:00:00 EDT 2008,38.514665,-121.480411
2880 CANDIDO DR,SACRAMENTO,95833,CA,3,2,1127,Residential,Fri May 16 00:00:00 EDT 2008,38.618019,-121.51021499999999
419 DAWNRIDGE RD,ROSEVILLE,95678,CA,3,2,1498,Residential,Tue May 20 00:00:00 EDT 2008,38.725283000000005,-121.297953
4055 DEERBROOK DR,SACRAMENTO,95823,CA,3,2,1466,Residential,Fri May 16 00:00:00 EDT 2008,38.472117,-121.459589
6920 GILLINGHAM WAY,NORTH HIGHLANDS,95660,CA,3,1,1310,Residential,Thu May 15 00:00:00 EDT 2008,38.694278999999995,-121.373395
2115 SMOKESTACK WAY,SACRAMENTO,95833,CA,0,0,0,Residential,Wed May 21 00:00:00 EDT 2008,38.602416,-121.542965
7409 VOYAGER WAY,CITRUS HEIGHTS,95621,CA,3,1,1073,Residential,Thu May 15 00:00:00 EDT 2008,38.700717,-121.3133
5037 J PKWY,SACRAMENTO,95823,CA,3,2,1478,Residential,Wed May 21 00:00:00 EDT 2008,38.491399,-121.443547
10254 JULIANA WAY,SACRAMENTO,95827,CA,4,2,2484,Residential,Fri May 16 00:00:00 EDT 2008,38.56803,-121.30996599999999
4186 TULIP PARK WAY,RANCHO CORDOVA,95742,CA,5,3,3615,Residential,Wed May 21 00:00:00 EDT 2008,38.550616999999995,-121.23526000000001
9452 RED SPRUCE WAY,ELK GROVE,95624,CA,6,3,2555,Residential,Fri May 16 00:00:00 EDT 2008,38.404505,-121.346938
230 CANDELA CIR,SACRAMENTO,95835,CA,3,2,1541,Residential,Wed May 21 00:00:00 EDT 2008,38.656251,-121.547572
6196 EDGEHILL DR,EL DORADO HILLS,95762,CA,5,4,0,Residential,Fri May 16 00:00:00 EDT 2008,38.676131,-121.038931
4440 SYCAMORE AVE,SACRAMENTO,95841,CA,3,1,2068,Residential,Tue May 20 00:00:00 EDT 2008,38.646374,-121.35365800000001
2916 BABSON DR,ELK GROVE,95758,CA,3,2,1735,Residential,Fri May 16 00:00:00 EDT 2008,38.417190999999995,-121.473897
3578 LOGGERHEAD WAY,SACRAMENTO,95834,CA,4,2,2169,Residential,Tue May 20 00:00:00 EDT 2008,38.633028,-121.52675500000001
5821 64TH ST,SACRAMENTO,95824,CA,2,1,861,Residential,Fri May 16 00:00:00 EDT 2008,38.521202,-121.428146
100 CRYSTALWOOD CIR,LINCOLN,95648,CA,0,0,0,Residential,Mon May 19 00:00:00 EDT 2008,38.886091,-121.289744
4636 TEAL BAY CT,ANTELOPE,95843,CA,4,2,2160,Residential,Fri May 16 00:00:00 EDT 2008,38.704553999999995,-121.354753
4901 MILLNER WAY,ELK GROVE,95757,CA,3,2,1843,Residential,Wed May 21 00:00:00 EDT 2008,38.38692,-121.447349
6507 RIO DE ONAR WAY,ELK GROVE,95757,CA,4,3,2724,Residential,Wed May 21 00:00:00 EDT 2008,38.382529999999996,-121.42800700000001
4204 LUSK DR,SACRAMENTO,95864,CA,3,2,1360,Residential,Fri May 16 00:00:00 EDT 2008,38.606569,-121.368424
2284 LOS ROBLES RD,MEADOW VISTA,95722,CA,3,1,1216,Residential,Tue May 20 00:00:00 EDT 2008,39.008159,-121.03623
2887 AZEVEDO DR,SACRAMENTO,95833,CA,4,2,1448,Residential,Wed May 21 00:00:00 EDT 2008,38.618457,-121.50943899999999
110 COPPER LEAF WAY,SACRAMENTO,95838,CA,3,2,2142,Residential,Mon May 19 00:00:00 EDT 2008,38.658466,-121.46066100000002
6485 LAGUNA MIRAGE LN,ELK GROVE,95758,CA,2,2,1112,Residential,Mon May 19 00:00:00 EDT 2008,38.42465,-121.43013700000002
1140 EDMONTON DR,SACRAMENTO,95833,CA,3,2,1204,Residential,Thu May 15 00:00:00 EDT 2008,38.62457,-121.48691299999999
868 HILDEBRAND CIR,FOLSOM,95630,CA,0,0,0,Residential,Wed May 21 00:00:00 EDT 2008,38.670947,-121.097727
4660 CEDARWOOD WAY,SACRAMENTO,95823,CA,4,2,1310,Residential,Tue May 20 00:00:00 EDT 2008,38.484834,-121.449316
315 JUMEL CT,EL DORADO HILLS,95762,CA,6,5,0,Residential,Wed May 21 00:00:00 EDT 2008,38.669931,-121.05958000000001
648 SANTA ANA AVE,SACRAMENTO,95838,CA,3,2,1211,Residential,Tue May 20 00:00:00 EDT 2008,38.658478,-121.45040900000001
7213 CALVIN DR,CITRUS HEIGHTS,95621,CA,3,1,1258,Residential,Mon May 19 00:00:00 EDT 2008,38.698153999999995,-121.298375
2298 PRIMROSE LN,LINCOLN,95648,CA,3,2,1621,Residential,Fri May 16 00:00:00 EDT 2008,38.89918,-121.32251399999998
3882 YELLOWSTONE LN,EL DORADO HILLS,95762,CA,3,2,1362,Residential,Thu May 15 00:00:00 EDT 2008,38.655245,-121.075915
2956 DAVENPORT WAY,SACRAMENTO,95833,CA,4,2,1917,Residential,Mon May 19 00:00:00 EDT 2008,38.620687,-121.482619
1792 DIAMOND WOODS CIR,ROSEVILLE,95747,CA,4,3,0,Residential,Fri May 16 00:00:00 EDT 2008,38.808581,-121.32785
9629 CEDAR OAK WAY,ELK GROVE,95757,CA,5,4,3260,Residential,Tue May 20 00:00:00 EDT 2008,38.405527,-121.43174599999999
2028 ROBERT WAY,SACRAMENTO,95825,CA,2,1,810,Residential,Tue May 20 00:00:00 EDT 2008,38.609982,-121.41926299999999
3240 S ST,SACRAMENTO,95816,CA,2,1,1269,Residential,Tue May 20 00:00:00 EDT 2008,38.562296,-121.46748899999999
3427 LA CADENA WAY,SACRAMENTO,95835,CA,4,2,1904,Residential,Mon May 19 00:00:00 EDT 2008,38.681194,-121.537351
9355 MATADOR WAY,SACRAMENTO,95826,CA,4,2,1438,Residential,Fri May 16 00:00:00 EDT 2008,38.555633,-121.350691
7342 DAVE ST,SACRAMENTO,95828,CA,3,1,1638,Residential,Thu May 15 00:00:00 EDT 2008,38.490821999999994,-121.401643
2159 BECKETT DR,EL DORADO HILLS,95762,CA,3,2,0,Residential,Fri May 16 00:00:00 EDT 2008,38.680092,-121.03646699999999
5308 MARBURY WAY,ANTELOPE,95843,CA,3,2,1830,Residential,Mon May 19 00:00:00 EDT 2008,38.710221000000004,-121.341707
29 COOL FOUNTAIN CT,SACRAMENTO,95833,CA,4,2,2155,Residential,Mon May 19 00:00:00 EDT 2008,38.606906,-121.54132
8219 GWINHURST CIR,SACRAMENTO,95828,CA,4,3,2491,Residential,Tue May 20 00:00:00 EDT 2008,38.459711,-121.38428300000001
6671 FOXWOOD CT,SACRAMENTO,95841,CA,4,2,1766,Residential,Mon May 19 00:00:00 EDT 2008,38.687943,-121.328883
8652 BANTON CIR,ELK GROVE,95624,CA,4,2,1740,Residential,Thu May 15 00:00:00 EDT 2008,38.444,-121.370993
923 FULTON AVE,SACRAMENTO,95825,CA,1,1,484,Condo,Mon May 19 00:00:00 EDT 2008,38.582279,-121.401482
2219 EL CANTO CIR,RANCHO CORDOVA,95670,CA,4,2,1829,Residential,Tue May 20 00:00:00 EDT 2008,38.592383,-121.318669
3035 ESTEPA DR Unit 5C,CAMERON PARK,95682,CA,0,0,0,Condo,Thu May 15 00:00:00 EDT 2008,38.681393,-120.99671299999999
7420 ALIX PKWY,SACRAMENTO,95823,CA,4,1,1955,Residential,Wed May 21 00:00:00 EDT 2008,38.489405,-121.45281100000001
5708 RIDGEPOINT DR,ANTELOPE,95843,CA,2,2,1043,Residential,Wed May 21 00:00:00 EDT 2008,38.72027,-121.33155500000001
6943 WOLFGRAM WAY,SACRAMENTO,95828,CA,4,2,1176,Residential,Mon May 19 00:00:00 EDT 2008,38.489215,-121.419546
261 REDONDO AVE,SACRAMENTO,95815,CA,3,1,970,Residential,Mon May 19 00:00:00 EDT 2008,38.620684999999995,-121.46053899999998
200 ALLAIRE CIR,SACRAMENTO,95835,CA,4,2,2166,Residential,Mon May 19 00:00:00 EDT 2008,38.68318,-121.53483999999999
8299 HALBRITE WAY,SACRAMENTO,95828,CA,4,2,1590,Residential,Wed May 21 00:00:00 EDT 2008,38.473814000000004,-121.4
6313 CASTRO VERDE WAY,ELK GROVE,95757,CA,0,0,0,Residential,Mon May 19 00:00:00 EDT 2008,38.381102,-121.42901
26 JEANROSS CT,SACRAMENTO,95832,CA,5,3,2992,Residential,Mon May 19 00:00:00 EDT 2008,38.473162,-121.49108500000001
9197 CORTINA CIR,ROSEVILLE,95678,CA,3,2,0,Condo,Thu May 15 00:00:00 EDT 2008,38.793152,-121.290025
7577 EDDYLEE WAY,SACRAMENTO,95822,CA,4,2,1436,Residential,Fri May 16 00:00:00 EDT 2008,38.48291,-121.49150900000001
6850 21ST ST,SACRAMENTO,95822,CA,3,2,1446,Residential,Wed May 21 00:00:00 EDT 2008,38.502194,-121.49079499999999
434 1ST ST,LINCOLN,95648,CA,0,0,0,Residential,Mon May 19 00:00:00 EDT 2008,38.88653,-121.289406
1230 SANDRA CIR,PLACERVILLE,95667,CA,4,3,2295,Residential,Tue May 20 00:00:00 EDT 2008,38.738141,-120.784145
601 REGGINALD WAY,SACRAMENTO,95838,CA,3,2,1092,Residential,Thu May 15 00:00:00 EDT 2008,38.64472,-121.452228
191 BARNHART CIR,SACRAMENTO,95835,CA,4,2,2605,Residential,Fri May 16 00:00:00 EDT 2008,38.675594,-121.515878
2987 PONDEROSA LN,SACRAMENTO,95815,CA,4,2,1120,Residential,Mon May 19 00:00:00 EDT 2008,38.622243,-121.45786299999999
2945 RED HAWK WAY,SACRAMENTO,95833,CA,4,2,1856,Residential,Mon May 19 00:00:00 EDT 2008,38.619675,-121.496903
200 OAKWILDE ST,GALT,95632,CA,4,2,1606,Residential,Mon May 19 00:00:00 EDT 2008,38.2535,-121.31812
14151 INDIO DR,SLOUGHHOUSE,95683,CA,3,4,5822,Residential,Fri May 16 00:00:00 EDT 2008,38.490446999999996,-121.129337
612 STONE BLVD,WEST SACRAMENTO,95691,CA,2,1,884,Residential,Thu May 15 00:00:00 EDT 2008,38.563084,-121.535579
14 ASHLEY OAKS CT,SACRAMENTO,95815,CA,3,2,1264,Residential,Tue May 20 00:00:00 EDT 2008,38.61779,-121.436765
8920 ROSETTA CIR,SACRAMENTO,95826,CA,3,1,1029,Residential,Fri May 16 00:00:00 EDT 2008,38.544374,-121.370874
1069 ACACIA AVE,SACRAMENTO,95815,CA,2,1,1220,Residential,Tue May 20 00:00:00 EDT 2008,38.621998,-121.44223799999999
10 SEA FOAM CT,SACRAMENTO,95831,CA,3,3,2052,Residential,Wed May 21 00:00:00 EDT 2008,38.487885,-121.545947
9723 TERRAPIN CT,ELK GROVE,95757,CA,4,3,2354,Residential,Wed May 21 00:00:00 EDT 2008,38.403492,-121.430224
7401 TOULON LN,SACRAMENTO,95828,CA,4,2,1512,Residential,Thu May 15 00:00:00 EDT 2008,38.488628000000006,-121.387759
6417 SUNNYFIELD WAY,SACRAMENTO,95823,CA,4,2,1580,Residential,Fri May 16 00:00:00 EDT 2008,38.449153,-121.42827199999999
7756 TIGERWOODS DR,SACRAMENTO,95829,CA,5,3,3984,Residential,Tue May 20 00:00:00 EDT 2008,38.47643,-121.309243
3624 20TH AVE,SACRAMENTO,95820,CA,5,2,1516,Residential,Mon May 19 00:00:00 EDT 2008,38.534508,-121.46790700000001
2015 PROMONTORY POINT LN,GOLD RIVER,95670,CA,3,2,1981,Residential,Tue May 20 00:00:00 EDT 2008,38.628732,-121.261149
3108 DELWOOD WAY,SACRAMENTO,95821,CA,4,2,2053,Residential,Fri May 16 00:00:00 EDT 2008,38.621565999999994,-121.37088200000001
11150 TRINITY RIVER DR Unit 114,RANCHO CORDOVA,95670,CA,2,2,941,Condo,Wed May 21 00:00:00 EDT 2008,38.621188000000004,-121.270555
7629 BETH ST,SACRAMENTO,95832,CA,3,2,1249,Residential,Thu May 15 00:00:00 EDT 2008,38.480126,-121.48786899999999
11281 STANFORD COURT LN Unit 604,GOLD RIVER,95670,CA,0,0,0,Condo,Tue May 20 00:00:00 EDT 2008,38.625289,-121.26028600000001
127 QUASAR CIR,SACRAMENTO,95822,CA,2,2,990,Residential,Fri May 16 00:00:00 EDT 2008,38.493503999999994,-121.47530400000001
9254 HARROGATE WAY,ELK GROVE,95758,CA,2,2,1006,Residential,Tue May 20 00:00:00 EDT 2008,38.420138,-121.41217900000001
3432 Y ST,SACRAMENTO,95817,CA,4,2,1099,Residential,Tue May 20 00:00:00 EDT 2008,38.554967,-121.468046
633 HANISCH DR,ROSEVILLE,95678,CA,4,3,1800,Residential,Fri May 16 00:00:00 EDT 2008,38.763490000000004,-121.27588100000001
6048 OGDEN NASH WAY,SACRAMENTO,95842,CA,3,2,1104,Residential,Wed May 21 00:00:00 EDT 2008,38.681659,-121.35170500000001
6344 BONHAM CIR,CITRUS HEIGHTS,95610,CA,5,4,2085,Multi-Family,Tue May 20 00:00:00 EDT 2008,38.682358,-121.272876
4821 HUTSON WAY,ELK GROVE,95757,CA,5,3,2877,Residential,Fri May 16 00:00:00 EDT 2008,38.386239,-121.448159
6708 PONTA DO SOL WAY,ELK GROVE,95757,CA,4,2,3134,Residential,Wed May 21 00:00:00 EDT 2008,38.380635,-121.42553799999999
5321 DELTA DR,ROCKLIN,95765,CA,4,2,0,Residential,Fri May 16 00:00:00 EDT 2008,38.815493,-121.26290800000001
2931 HOWE AVE,SACRAMENTO,95821,CA,3,1,1264,Residential,Fri May 16 00:00:00 EDT 2008,38.619012,-121.415329
500 WINCHESTER CT,ROSEVILLE,95661,CA,3,2,2274,Residential,Mon May 19 00:00:00 EDT 2008,38.73988,-121.248929
5448 MAIDSTONE WAY,CITRUS HEIGHTS,95621,CA,3,2,1305,Residential,Wed May 21 00:00:00 EDT 2008,38.665395000000004,-121.29328799999999
6208 GRATTAN WAY,NORTH HIGHLANDS,95660,CA,3,1,1051,Residential,Thu May 15 00:00:00 EDT 2008,38.679279,-121.37661499999999
28 CRYSTALWOOD CIR,LINCOLN,95648,CA,0,0,0,Residential,Mon May 19 00:00:00 EDT 2008,38.884935999999996,-121.289397
4165 BRISBANE CIR,EL DORADO HILLS,95762,CA,3,2,0,Residential,Fri May 16 00:00:00 EDT 2008,38.686067,-121.07341299999999
6000 BIRCHGLADE WAY,CITRUS HEIGHTS,95621,CA,4,2,1351,Residential,Mon May 19 00:00:00 EDT 2008,38.70166,-121.323249
7511 OAKVALE CT,NORTH HIGHLANDS,95660,CA,4,2,1240,Residential,Wed May 21 00:00:00 EDT 2008,38.702791999999995,-121.38221000000001
483 ARCADE BLVD,SACRAMENTO,95815,CA,4,2,1316,Residential,Tue May 20 00:00:00 EDT 2008,38.623571000000005,-121.454884
4232 71ST ST,SACRAMENTO,95820,CA,2,1,723,Residential,Tue May 20 00:00:00 EDT 2008,38.536741,-121.42115
92 CRYSTALWOOD CIR,LINCOLN,95648,CA,0,0,0,Residential,Mon May 19 00:00:00 EDT 2008,38.88592,-121.28990800000001
1792 DAWNELLE WAY,SACRAMENTO,95835,CA,3,2,1170,Residential,Fri May 16 00:00:00 EDT 2008,38.68271,-121.501697
556 PLATT CIR,EL DORADO HILLS,95762,CA,4,2,2199,Residential,Fri May 16 00:00:00 EDT 2008,38.656299,-121.079783
5805 HIMALAYA WAY,CITRUS HEIGHTS,95621,CA,4,2,1578,Residential,Tue May 20 00:00:00 EDT 2008,38.696489,-121.32855500000001
8432 BRIGGS DR,ROSEVILLE,95747,CA,5,3,3579,Residential,Fri May 16 00:00:00 EDT 2008,38.78861,-121.339495
8025 ARROYO VISTA DR,SACRAMENTO,95823,CA,4,2,1392,Residential,Thu May 15 00:00:00 EDT 2008,38.46654,-121.41902900000001
5754 WALERGA RD Unit 4,SACRAMENTO,95842,CA,2,1,924,Condo,Thu May 15 00:00:00 EDT 2008,38.672567,-121.35675400000001
4180 12TH AVE,SACRAMENTO,95817,CA,3,1,1019,Residential,Thu May 15 00:00:00 EDT 2008,38.54117,-121.458129
43 CRYSTALWOOD CIR,LINCOLN,95648,CA,0,0,0,Residential,Mon May 19 00:00:00 EDT 2008,38.884568,-121.28978400000001
9278 DAIRY CT,ELK GROVE,95624,CA,0,0,0,Residential,Wed May 21 00:00:00 EDT 2008,38.420338,-121.363757
7741 MILLDALE CIR,ELVERTA,95626,CA,4,2,1354,Residential,Mon May 19 00:00:00 EDT 2008,38.705834,-121.43919
6344 LAGUNA MIRAGE LN,ELK GROVE,95758,CA,2,2,1112,Residential,Mon May 19 00:00:00 EDT 2008,38.423963,-121.428875
1525 PENNSYLVANIA AVE,WEST SACRAMENTO,95691,CA,0,0,0,Residential,Thu May 15 00:00:00 EDT 2008,38.569943,-121.52753899999999
1528 HESKET WAY,SACRAMENTO,95825,CA,4,2,1566,Residential,Fri May 16 00:00:00 EDT 2008,38.593598,-121.40363700000002
170 LAGOMARSINO WAY,SACRAMENTO,95819,CA,3,2,1697,Residential,Mon May 19 00:00:00 EDT 2008,38.574894,-121.435806
840 TRANQUIL LN,GALT,95632,CA,3,2,1266,Residential,Tue May 20 00:00:00 EDT 2008,38.270617,-121.299205
9488 OAK VILLAGE WAY,ELK GROVE,95758,CA,4,2,1801,Residential,Wed May 21 00:00:00 EDT 2008,38.41333,-121.404999
3 CRYSTALWOOD CIR,LINCOLN,95648,CA,0,0,0,Residential,Mon May 19 00:00:00 EDT 2008,38.886093,-121.289584
3569 SODA WAY,SACRAMENTO,95834,CA,0,0,0,Residential,Fri May 16 00:00:00 EDT 2008,38.631139000000005,-121.501879
3935 LIMESTONE WAY,SACRAMENTO,95823,CA,3,2,1354,Residential,Thu May 15 00:00:00 EDT 2008,38.484374,-121.46315700000001
8323 REDBANK WAY,SACRAMENTO,95829,CA,3,2,1789,Residential,Fri May 16 00:00:00 EDT 2008,38.455753,-121.349273
8986 HAFLINGER WAY,ELK GROVE,95757,CA,3,2,1857,Residential,Fri May 16 00:00:00 EDT 2008,38.397923,-121.45021899999999
3522 22ND AVE,SACRAMENTO,95820,CA,3,1,1150,Residential,Fri May 16 00:00:00 EDT 2008,38.532725,-121.469078
5976 KYLENCH CT,CITRUS HEIGHTS,95621,CA,3,2,1367,Residential,Fri May 16 00:00:00 EDT 2008,38.708966,-121.32467
7015 WOODSIDE DR,SACRAMENTO,95842,CA,4,2,1578,Residential,Fri May 16 00:00:00 EDT 2008,38.693071,-121.332365
6600 SILVERTHORNE CIR,SACRAMENTO,95842,CA,4,3,1968,Residential,Thu May 15 00:00:00 EDT 2008,38.68607,-121.34236899999999
700 HUNTER PL,FOLSOM,95630,CA,5,3,2787,Residential,Fri May 16 00:00:00 EDT 2008,38.660509999999995,-121.16368899999999
1139 CLINTON RD,SACRAMENTO,95825,CA,4,2,1776,Multi-Family,Fri May 16 00:00:00 EDT 2008,38.585291,-121.406824
4727 SAVOIE WAY,SACRAMENTO,95835,CA,5,3,2800,Residential,Wed May 21 00:00:00 EDT 2008,38.658182000000004,-121.549521
1732 TUSCAN GROVE CIR,ROSEVILLE,95747,CA,5,3,0,Residential,Mon May 19 00:00:00 EDT 2008,38.796683,-121.342555
2622 ERIN DR,SACRAMENTO,95833,CA,4,1,1120,Residential,Wed May 21 00:00:00 EDT 2008,38.613765,-121.488694
865 CONRAD CT,PLACERVILLE,95667,CA,3,2,0,Residential,Fri May 16 00:00:00 EDT 2008,38.729993,-120.802458
3409 VIRGO ST,SACRAMENTO,95827,CA,3,2,1320,Residential,Fri May 16 00:00:00 EDT 2008,38.563402,-121.327747
1693 SHELTER COVE DR,GREENWOOD,95635,CA,3,2,2846,Residential,Wed May 21 00:00:00 EDT 2008,38.945357,-120.908822
4010 ALEX LN,CARMICHAEL,95608,CA,2,2,1326,Condo,Wed May 21 00:00:00 EDT 2008,38.637028,-121.31296299999998
120 GRANT LN,FOLSOM,95630,CA,3,2,1820,Residential,Wed May 21 00:00:00 EDT 2008,38.687742,-121.17103999999999
10105 MONTE VALLO CT,SACRAMENTO,95827,CA,4,2,1578,Residential,Fri May 16 00:00:00 EDT 2008,38.573917,-121.31691599999999
5531 JANSEN DR,SACRAMENTO,95824,CA,3,1,1060,Residential,Fri May 16 00:00:00 EDT 2008,38.522015,-121.43871299999999
4900 71ST ST,SACRAMENTO,95820,CA,3,1,1018,Residential,Wed May 21 00:00:00 EDT 2008,38.53151,-121.421089
1080 RIO NORTE WAY,SACRAMENTO,95834,CA,3,2,1428,Residential,Thu May 15 00:00:00 EDT 2008,38.634335,-121.486098
5479 NICKMAN WAY,SACRAMENTO,95835,CA,4,2,1871,Residential,Mon May 19 00:00:00 EDT 2008,38.672965999999995,-121.502748
8317 SUNNY CREEK WAY,SACRAMENTO,95823,CA,3,2,1420,Residential,Wed May 21 00:00:00 EDT 2008,38.459041,-121.424644
9020 LUKEN CT,ELK GROVE,95624,CA,3,2,1416,Residential,Thu May 15 00:00:00 EDT 2008,38.451398,-121.36661399999998
27 MEGAN CT,SACRAMENTO,95838,CA,4,2,1887,Residential,Thu May 15 00:00:00 EDT 2008,38.649258,-121.46530800000001
4487 PANORAMA DR,PLACERVILLE,95667,CA,3,2,1329,Residential,Tue May 20 00:00:00 EDT 2008,38.694559000000005,-120.848157
68 CRYSTALWOOD CIR,LINCOLN,95648,CA,0,0,0,Residential,Mon May 19 00:00:00 EDT 2008,38.885236,-121.289928
14788 NATCHEZ CT,RANCHO MURIETA,95683,CA,0,0,0,Residential,Tue May 20 00:00:00 EDT 2008,38.492287,-121.10003200000001
1630 GLIDDEN AVE,SACRAMENTO,95822,CA,4,2,1253,Residential,Fri May 16 00:00:00 EDT 2008,38.482717,-121.499683
8200 STEINBECK WAY,SACRAMENTO,95828,CA,4,2,1358,Residential,Fri May 16 00:00:00 EDT 2008,38.474854,-121.404726
8321 MISTLETOE WAY,CITRUS HEIGHTS,95621,CA,4,2,1381,Residential,Thu May 15 00:00:00 EDT 2008,38.717738,-121.308322
15 CRYSTALWOOD CIR,LINCOLN,95648,CA,0,0,0,Residential,Mon May 19 00:00:00 EDT 2008,38.885571,-121.28942099999999
2802 BLACK OAK DR,ROCKLIN,95765,CA,2,2,1596,Residential,Mon May 19 00:00:00 EDT 2008,38.837006,-121.232024
6743 21ST ST,SACRAMENTO,95822,CA,3,2,1104,Residential,Mon May 19 00:00:00 EDT 2008,38.50372,-121.49065700000001
2181 WINTERHAVEN CIR,CAMERON PARK,95682,CA,3,2,0,Residential,Thu May 15 00:00:00 EDT 2008,38.69757,-120.99573899999999
6063 LAND PARK DR,SACRAMENTO,95822,CA,2,1,800,Condo,Fri May 16 00:00:00 EDT 2008,38.517029,-121.51380900000001
8369 FOPPIANO WAY,SACRAMENTO,95829,CA,3,2,1124,Residential,Fri May 16 00:00:00 EDT 2008,38.453839,-121.357919
8316 NORTHAM DR,ANTELOPE,95843,CA,3,2,1235,Residential,Fri May 16 00:00:00 EDT 2008,38.720766999999995,-121.376678
3812 BELDEN ST,SACRAMENTO,95838,CA,2,1,904,Residential,Fri May 16 00:00:00 EDT 2008,38.636833,-121.44163999999999
1484 RADCLIFFE WAY,AUBURN,95603,CA,4,3,2278,Residential,Fri May 16 00:00:00 EDT 2008,38.935579,-121.07901799999999
509 CASTILLIAN CT,ROSEVILLE,95747,CA,5,3,0,Residential,Fri May 16 00:00:00 EDT 2008,38.804773,-121.341195
1214 DAWNWOOD DR,GALT,95632,CA,3,2,1548,Residential,Fri May 16 00:00:00 EDT 2008,38.290119,-121.286023
2368 CRAIG AVE,SACRAMENTO,95832,CA,3,2,1300,Residential,Mon May 19 00:00:00 EDT 2008,38.47807,-121.48114
4712 PISMO BEACH DR,ANTELOPE,95843,CA,5,3,2346,Residential,Mon May 19 00:00:00 EDT 2008,38.707705,-121.354153
8032 DUSENBERG CT,SACRAMENTO,95828,CA,4,2,1638,Residential,Mon May 19 00:00:00 EDT 2008,38.466499,-121.381119
4480 VALLEY HI DR,SACRAMENTO,95823,CA,3,2,1650,Residential,Fri May 16 00:00:00 EDT 2008,38.466781,-121.45095500000001
8306 CURLEW CT,CITRUS HEIGHTS,95621,CA,4,2,1280,Residential,Mon May 19 00:00:00 EDT 2008,38.715781,-121.298519
2089 BECKETT DR,EL DORADO HILLS,95762,CA,4,2,0,Residential,Fri May 16 00:00:00 EDT 2008,38.681778,-121.03583799999998
24 WINDCHIME CT,SACRAMENTO,95823,CA,3,2,1593,Residential,Fri May 16 00:00:00 EDT 2008,38.44617,-121.427824
26 KAMSON CT,SACRAMENTO,95833,CA,3,2,1582,Residential,Thu May 15 00:00:00 EDT 2008,38.622794,-121.499173
7325 10TH ST,RIO LINDA,95673,CA,3,2,1146,Residential,Wed May 21 00:00:00 EDT 2008,38.700909,-121.44297900000001
8198 STEVENSON AVE,SACRAMENTO,95828,CA,6,4,2475,Multi-Family,Fri May 16 00:00:00 EDT 2008,38.465271,-121.40426000000001
2930 LA ROSA RD,SACRAMENTO,95815,CA,1,1,871,Residential,Wed May 21 00:00:00 EDT 2008,38.618697999999995,-121.435833
709 CIMMARON CT,GALT,95632,CA,4,2,1798,Residential,Mon May 19 00:00:00 EDT 2008,38.277177,-121.303747
1456 EAGLESFIELD LN,LINCOLN,95648,CA,4,3,0,Residential,Tue May 20 00:00:00 EDT 2008,38.857634999999995,-121.311375
3139 SPOONWOOD WAY Unit 1,SACRAMENTO,95833,CA,0,0,0,Residential,Tue May 20 00:00:00 EDT 2008,38.626582,-121.52151
250 PERALTA AVE,SACRAMENTO,95833,CA,2,1,588,Residential,Wed May 21 00:00:00 EDT 2008,38.612099,-121.469095
9417 SARA ST,ELK GROVE,95624,CA,3,2,1188,Residential,Wed May 21 00:00:00 EDT 2008,38.415518,-121.370527
2915 HOLDREGE WAY,SACRAMENTO,95835,CA,5,3,2494,Residential,Fri May 16 00:00:00 EDT 2008,38.663728000000006,-121.525833
1207 CRESCENDO DR,ROSEVILLE,95678,CA,3,2,1770,Residential,Fri May 16 00:00:00 EDT 2008,38.72446,-121.292829
